City_ID,City,Lat,Lng,Max Temp,Humidity,Cloudiness,Wind Speed,Country,Date
0,isafjordur,66.0755,-23.124,265.19,73,1,1.81,IS,1707356888
1,port mathurin,-19.6833,63.4167,299.77,79,73,8.36,MU,1707356888
2,monte carmelo,-18.7247,-47.4986,293.86,89,100,1.43,BR,1707356889
3,adamstown,-25.066,-130.1015,297.87,79,100,6.23,PN,1707356889
4,port-aux-francais,-49.35,70.2167,277.75,76,80,13.13,TF,1707356685
5,grytviken,-54.2811,-36.5092,282.65,64,100,6.32,GS,1707356889
6,balti,47.7617,27.9289,280.84,79,80,3.53,MD,1707356889
7,crookston,47.7741,-96.6081,278.76,81,100,4.63,US,1707356889
8,carnarvon,-24.8667,113.6333,305.43,39,0,1.96,AU,1707356889
9,waitangi,-43.9535,-176.5597,293.05,80,100,0.89,NZ,1707356684
10,ushuaia,-54.8,-68.3,281.94,66,40,6.17,AR,1707356825
11,lorengau,-2.0226,147.2712,301.21,80,100,8.99,PG,1707356889
12,usogorsk,63.4106,48.6872,258.52,96,100,3.79,RU,1707356890
13,mogadishu,2.0371,45.3438,299.44,83,40,9.37,SO,1707356890
14,edinburgh of the seven seas,-37.0676,-12.3116,290.35,67,100,2.71,SH,1707356890
15,coahuayana de hidalgo,18.7,-103.6583,295.72,90,9,1.44,MX,1707356890
16,albany,42.6001,-73.9662,274.77,70,28,0.79,US,1707356728
17,guatire,10.4762,-66.5427,299.37,98,64,1.27,VE,1707356890
18,thompson,55.7435,-97.8558,258.24,85,100,2.57,CA,1707356890
19,codrington,-38.2667,141.9667,293.57,50,1,6.06,AU,1707356890
20,masjed soleyman,31.9364,49.3039,284.72,55,0,1.09,IR,1707356890
21,kone,-21.0595,164.8658,298.28,87,100,2.63,NC,1707356890
22,alofi,-19.0595,-169.9187,304.09,70,75,3.6,NU,1707356797
23,castillos,-34.1667,-53.8333,294.79,87,41,2.73,UY,1707356890
24,bethel,41.3712,-73.414,276.61,59,100,0.0,US,1707356841
25,slave lake,55.2834,-114.769,268.14,86,100,2.06,CA,1707356890
26,hamilton,39.1834,-84.5333,282.82,54,0,3.09,US,1707356891
27,lihue,21.9789,-159.3672,300.73,70,20,6.69,US,1707356882
28,gourdon,44.75,1.5,282.97,95,100,2.37,FR,1707356891
29,wailua homesteads,22.0669,-159.378,300.39,71,20,6.69,US,1707356691
30,olonkinbyen,70.9221,-8.7187,270.39,59,91,6.36,SJ,1707356891
31,bredasdorp,-34.5322,20.0403,291.24,79,52,2.68,ZA,1707356891
32,muli,2.9167,73.5667,300.95,71,98,6.48,MV,1707356891
33,vilyuchinsk,52.9306,158.4028,266.44,79,100,1.06,RU,1707356891
34,mariental,-24.6333,17.9667,299.05,35,100,3.36,NA,1707356891
35,aasiaat,68.7098,-52.8699,254.27,96,100,3.91,GL,1707356891
36,beihai,21.4833,109.1,282.84,86,100,7.88,CN,1707356891
37,tiksi,71.6872,128.8694,252.56,100,100,2.34,RU,1707356891
38,dadhar,29.4753,67.6514,287.12,56,0,0.6,PK,1707356891
39,sungailiat,-1.85,106.1333,298.6,90,100,3.76,ID,1707356891
40,udachny,66.4167,112.4,247.84,75,100,1.11,RU,1707356689
41,bilibino,68.0546,166.4372,238.91,100,98,0.32,RU,1707356891
42,puerto natales,-51.7236,-72.4875,281.71,83,93,6.15,CL,1707356845
43,blackmans bay,-43.0167,147.3167,297.89,54,0,0.89,AU,1707356892
44,kabalo,-6.05,26.9167,293.75,98,100,0.94,CD,1707356892
45,port saint john's,-31.6229,29.5448,293.5,80,12,2.39,ZA,1707356892
46,grand falls-windsor,48.9332,-55.6649,259.15,99,66,1.62,CA,1707356892
47,talnakh,69.4865,88.3972,247.88,89,32,1.91,RU,1707356892
48,ust-nera,64.5667,143.2,246.2,97,100,1.03,RU,1707356892
49,mata-utu,-13.2816,-176.1745,302.19,81,100,8.09,WF,1707356892
50,vodice,43.7608,15.7828,283.54,87,15,4.12,HR,1707356892
51,college,64.8569,-147.8028,258.33,72,75,0.0,US,1707356892
52,invercargill,-46.4,168.35,287.6,75,82,7.6,NZ,1707356892
53,port elizabeth,-33.918,25.5701,292.77,79,0,6.17,ZA,1707356892
54,mitu,1.1983,-70.1733,297.69,87,63,0.38,CO,1707356893
55,margaret river,-33.95,115.0667,300.34,35,0,1.62,AU,1707356682
56,salinas,36.6777,-121.6555,283.2,84,40,5.66,US,1707356666
57,cole harbour,44.6724,-63.4751,270.86,76,98,2.48,CA,1707356893
58,punta arenas,-53.15,-70.9167,283.21,71,40,13.89,CL,1707356893
59,tolanaro,-25.0319,46.9987,297.19,88,75,4.12,MG,1707356893
60,chesapeake beach,38.6862,-76.5347,277.64,70,9,0.08,US,1707356893
61,ribeira grande,38.5167,-28.7,289.69,86,63,8.94,PT,1707356893
62,vorgashor,67.5833,63.95,265.58,87,100,5.39,RU,1707356745
63,payakumbuh,-0.2202,100.6308,298.14,88,90,0.63,ID,1707356893
64,fort st. john,56.2499,-120.8529,266.09,73,100,1.03,CA,1707356893
65,at taj,24.2049,23.2857,283.3,46,0,3.14,LY,1707356893
66,san patricio,28.017,-97.5169,293.62,81,89,6.3,US,1707356692
67,soc trang,9.6033,105.98,301.98,58,37,3.62,VN,1707356893
68,ilulissat,69.2167,-51.1,262.16,85,100,10.8,GL,1707356894
69,flin flon,54.7682,-101.865,264.18,96,100,2.81,CA,1707356894
70,mariehamn,60.0973,19.9348,268.61,93,0,0.0,AX,1707356894
71,al kharijah,25.4514,30.5464,285.66,51,0,3.23,EG,1707356761
72,aldan,58.6031,125.3894,252.91,96,100,1.22,RU,1707356894
73,iskateley,67.6803,53.1512,255.94,96,100,5.81,RU,1707356894
74,avarua,-21.2078,-159.775,301.18,78,75,6.17,CK,1707356890
75,tsiombe,-25.3,45.4833,294.76,88,0,1.41,MG,1707356894
76,georgetown,5.4112,100.3354,302.01,86,20,3.6,MY,1707356894
77,kodiak,57.79,-152.4072,274.88,93,20,2.06,US,1707356894
78,beipiao,41.7919,120.7792,267.96,36,6,1.96,CN,1707356894
79,karema,-6.8205,30.4389,294.26,87,37,1.17,TZ,1707356894
80,puerto ayora,-0.7393,-90.3518,301.13,93,97,3.13,EC,1707356728
81,otofuke,42.9917,143.2003,263.68,81,14,1.35,JP,1707356894
82,port alfred,-33.5906,26.891,289.92,89,5,1.79,ZA,1707356895
83,longyearbyen,78.2186,15.6401,266.06,73,40,6.17,SJ,1707356895
84,palmer,42.1584,-72.3287,275.8,69,100,1.54,US,1707356895
85,keflavik,64.0049,-22.5624,270.39,68,0,6.17,IS,1707356892
86,gadzhiyevo,69.2551,33.3362,249.51,100,92,3.46,RU,1707356895
87,ubari,26.5921,12.7805,284.96,39,0,2.85,LY,1707356895
88,jamestown,42.097,-79.2353,277.95,60,0,1.54,US,1707356728
89,zaranj,30.9667,61.8833,283.67,23,0,3.17,AF,1707356895
90,genhe,50.7833,121.5167,253.62,94,100,1.49,CN,1707356895
91,namibe,-15.1961,12.1522,298.34,77,100,4.0,AO,1707356694
92,iqaluit,63.7506,-68.5145,253.0,59,20,1.54,CA,1707356895
93,rumbek,6.802,29.6912,297.42,23,52,2.22,SS,1707356895
94,hawaiian paradise park,19.5933,-154.9731,298.08,74,75,3.09,US,1707356896
95,kirensk,57.7853,108.1119,264.8,97,100,0.45,RU,1707356896
96,lerwick,60.1545,-1.1494,275.15,58,62,6.96,GB,1707356896
97,paita,-5.0892,-81.1144,299.11,82,62,5.67,PE,1707356896
98,kosh-agach,50.0,88.6667,250.54,79,100,0.45,RU,1707356896
99,lebu,-37.6167,-73.65,287.09,76,100,8.92,CL,1707356896
100,kulhudhuffushi,6.6221,73.07,300.11,71,98,3.71,MV,1707356896
101,caleta de carquin,-11.0925,-77.6267,298.11,80,25,4.05,PE,1707356896
102,vigan,17.5747,120.3869,301.44,94,5,0.57,PH,1707356896
103,kapuskasing,49.4169,-82.4331,274.2,93,100,1.03,CA,1707356896
104,nova sintra,14.8667,-24.7167,294.54,74,0,3.62,CV,1707356896
105,hadibu,12.65,54.0333,298.15,68,100,5.85,YE,1707356693
106,queenstown,-31.8976,26.8753,287.53,86,73,1.35,ZA,1707356896
107,as samawah,31.332,45.2944,286.2,52,0,3.28,IQ,1707356896
108,truth or consequences,33.1284,-107.2528,282.28,46,0,8.75,US,1707356897
109,urengoy,65.9667,78.3667,269.71,94,100,6.08,RU,1707356897
110,papatowai,-46.5619,169.4708,288.05,64,25,8.78,NZ,1707356887
111,linxia chengguanzhen,35.6003,103.2064,269.05,73,15,0.21,CN,1707356897
112,le port,-20.9373,55.2919,299.15,83,89,2.61,RE,1707356897
113,sao gabriel da cachoeira,-0.1303,-67.0892,297.12,96,86,0.35,BR,1707356897
114,qinggang,46.6833,126.0833,260.97,87,6,2.54,CN,1707356897
115,ninotsminda,41.2646,43.5916,265.91,90,95,3.68,GE,1707356897
116,la ronge,55.1001,-105.2842,264.29,92,100,4.12,CA,1707356749
117,la'ie,21.6477,-157.9253,300.13,76,3,2.24,US,1707356897
118,ceeldheer,3.8488,47.1806,298.43,86,5,6.51,SO,1707356897
119,general pico,-35.6566,-63.7568,304.27,39,100,5.79,AR,1707356897
120,dudinka,69.4058,86.1778,246.3,97,24,1.79,RU,1707356897
121,new norfolk,-42.7826,147.0587,298.55,29,0,1.23,AU,1707356897
122,porto seguro,-16.4497,-39.0647,300.44,83,40,2.57,BR,1707356774
123,hede,33.7681,120.2517,276.33,53,73,3.18,CN,1707356897
124,hermanus,-34.4187,19.2345,291.37,81,78,4.22,ZA,1707356741
125,burela de cabo,43.65,-7.4,289.91,62,100,7.93,ES,1707356897
126,westport,41.1415,-73.3579,277.53,64,100,0.0,US,1707356898
127,klyuchi,52.2667,79.1667,266.01,88,14,4.33,RU,1707356898
128,magadan,59.5667,150.8,253.44,75,11,2.12,RU,1707356898
129,pelabuhanratu,-6.9875,106.5514,301.63,72,10,0.44,ID,1707356898
130,rio grande,-32.035,-52.0986,297.56,86,33,6.36,BR,1707356898
131,kirakira,-10.4544,161.9205,303.25,74,100,8.17,SB,1707356898
132,tadine,-21.55,167.8833,300.45,63,100,6.86,NC,1707356898
133,arraial do cabo,-22.9661,-42.0278,297.13,94,20,0.0,BR,1707356898
134,tongliao,43.6125,122.2653,264.12,71,9,1.82,CN,1707356898
135,abepura,-2.6333,140.5833,302.6,66,20,3.6,ID,1707356898
136,wagar,16.1525,36.2032,292.24,68,27,3.9,SD,1707356898
137,yellowknife,62.456,-114.3525,257.44,78,100,3.09,CA,1707356899
138,camacupa,-12.0167,17.4833,289.12,93,100,0.51,AO,1707356899
139,ciudad acuna,29.3232,-100.9522,294.31,55,0,4.12,MX,1707356899
140,santa maria degli angeli,43.058,12.5777,283.75,92,75,1.54,IT,1707356899
141,smithers,54.7804,-127.1743,270.33,86,100,1.03,CA,1707356618
142,al jawf,29.5,38.75,283.0,55,0,3.98,SA,1707356899
143,enewetak,11.3474,162.3373,299.78,81,100,8.84,MH,1707356899
144,acarau,-2.8856,-40.12,300.17,82,12,5.53,BR,1707356899
145,arenapolis,-14.4503,-56.8461,300.1,67,100,1.46,BR,1707356899
146,illizi,26.4833,8.4667,283.04,30,3,1.7,DZ,1707356899
147,inari,68.906,27.0288,250.26,100,98,0.94,FI,1707356899
148,flying fish cove,-10.4217,105.6791,300.97,83,75,2.57,CX,1707356899
149,afaahiti,-17.75,-149.2833,300.08,89,100,14.64,PF,1707356899
150,chak two hundred forty-nine thal development authority,31.1796,71.2095,283.49,49,0,2.07,PK,1707356900
151,bakanas,44.8081,76.2772,273.16,99,100,6.04,KZ,1707356900
152,whitehorse,60.7161,-135.0538,259.58,85,75,5.14,CA,1707356696
153,cabo san lucas,22.8909,-109.9124,295.32,58,40,4.63,MX,1707356900
154,um jar al gharbiyya,13.8013,32.4078,291.99,21,92,4.85,SD,1707356900
155,bubaque,11.2833,-15.8333,299.19,75,100,3.9,GW,1707356720
156,diego martin,10.7005,-61.5342,299.34,91,13,3.61,TT,1707356900
157,mar del plata,-38.0023,-57.5575,297.16,82,0,3.09,AR,1707356888
158,nguigmi,14.2495,13.1092,289.51,28,13,5.81,NE,1707356900
159,pervomayskoye,43.919,46.7102,279.91,58,43,2.45,RU,1707356900
160,mirny,62.5353,113.9611,238.28,66,27,1.32,RU,1707356900
161,colonia,50.9333,6.95,278.12,91,75,1.03,DE,1707356900
162,selfoss,63.9331,-20.9971,262.62,83,4,4.78,IS,1707356900
163,san antonio,29.4241,-98.4936,292.21,73,40,8.75,US,1707356627
164,usinsk,65.9939,57.5281,263.75,90,99,2.68,RU,1707356901
165,portland,45.5234,-122.6762,282.47,80,27,0.45,US,1707356760
166,saint-philippe,-21.3585,55.7679,298.92,87,100,5.57,RE,1707356901
167,stanley,54.868,-1.6985,271.36,95,0,0.51,GB,1707356887
168,payyannur,12.1,75.2,296.27,63,51,1.5,IN,1707356901
169,vila do maio,15.1333,-23.2167,296.59,72,0,4.9,CV,1707356901
170,souillac,-20.5167,57.5167,299.45,88,40,3.09,MU,1707356901
171,utrik,11.2278,169.8474,299.54,81,100,9.69,MH,1707356687
172,magherafelt,54.7536,-6.6066,274.73,79,100,2.63,GB,1707356901
173,lazaro cardenas,17.9583,-102.2,297.93,78,25,2.73,MX,1707356901
174,muslyumovo,55.3033,53.1947,260.71,92,100,3.44,RU,1707356901
175,minas de marcona,-15.2119,-75.1103,292.85,93,99,3.61,PE,1707356902
176,okhotsk,59.3833,143.3,252.16,77,95,4.56,RU,1707356902
177,port sudan,19.6175,37.2164,293.82,63,10,3.47,SD,1707356902
178,eyl,7.9803,49.8164,296.84,75,41,5.44,SO,1707356902
179,laojunmiao,39.8333,97.7333,266.97,44,70,1.55,CN,1707356902
180,happy valley-goose bay,53.3168,-60.3315,266.32,63,75,0.0,CA,1707356720
181,preobrazheniye,42.9019,133.9064,270.02,42,0,3.06,RU,1707356902
182,berdigestyakh,62.0989,126.6992,241.19,97,98,1.94,RU,1707356902
183,kapa'a,22.0752,-159.319,301.14,70,20,6.69,US,1707356902
184,fort bragg,35.139,-79.006,279.34,67,0,0.45,US,1707356902
185,sur,22.5667,59.5289,294.27,64,100,1.83,OM,1707356902
186,borba,-4.3878,-59.5939,300.13,77,100,0.38,BR,1707356903
187,ta`u,-14.2336,-169.5144,301.46,79,100,9.26,AS,1707356903
188,tura,25.5198,90.2201,287.89,39,0,1.24,IN,1707356903
189,susuman,62.7833,148.1667,243.84,100,98,0.63,RU,1707356903
190,pasuquin,18.3328,120.6177,300.12,78,20,2.06,PH,1707356903
191,ishigaki,24.3448,124.1572,290.22,94,75,7.2,JP,1707356903
192,polyarnyy,69.1989,33.4478,250.66,100,87,3.63,RU,1707356903
193,bereket,39.2446,55.5154,283.44,43,15,2.77,TM,1707356903
194,irbit,57.6705,63.071,264.46,95,100,3.54,RU,1707356903
195,port lincoln,-34.7333,135.8667,293.03,62,7,5.3,AU,1707356903
196,padang,-0.9492,100.3543,302.18,73,91,0.12,ID,1707356903
197,cookeville,36.1628,-85.5016,286.59,53,0,2.06,US,1707356903
198,zaterechnyy,44.7931,45.2097,279.06,66,100,4.33,RU,1707356903
199,vakhrushi,58.6847,50.0261,258.37,98,100,1.78,RU,1707356904
200,aykhal,66.0,111.5,246.74,100,100,1.78,RU,1707356904
201,st. john's,47.5649,-52.7093,271.3,93,100,5.66,CA,1707356723
202,shakiso,5.75,38.9167,288.18,66,57,1.6,ET,1707356904
203,jedlicze,49.7175,21.6489,276.18,96,100,2.29,PL,1707356904
204,pisco,-13.7,-76.2167,297.18,88,0,7.72,PE,1707356652
205,kingston,17.997,-76.7936,296.68,69,20,10.29,JM,1707356676
206,tarakan,3.3,117.6333,299.87,89,75,1.03,ID,1707356904
207,kundiawa,-6.0167,144.9667,296.61,70,100,1.51,PG,1707356904
208,atafu village,-8.5421,-172.5159,301.47,81,100,8.06,TK,1707356894
209,tyukhtet,56.5389,89.3011,261.85,83,56,4.29,RU,1707356904
210,yelizovo,53.1873,158.3805,266.37,52,20,2.0,RU,1707356904
211,miles city,46.4083,-105.8406,273.69,100,100,2.06,US,1707356904
212,sol'-iletsk,51.1631,54.9918,267.16,96,100,6.37,RU,1707356905
213,lodja,-3.4833,23.4333,294.02,98,100,0.98,CD,1707356905
214,isanlu-itedoijowa,8.2667,5.8333,296.79,23,51,1.13,NG,1707356905
215,lovington,32.944,-103.3485,282.69,48,55,1.34,US,1707356905
216,kerikeri,-35.2268,173.9474,298.25,59,29,3.84,NZ,1707356905
217,vila velha,-20.3297,-40.2925,300.12,93,20,2.57,BR,1707356905
218,olavarria,-36.8927,-60.3225,296.65,81,54,5.16,AR,1707356905
219,ponta delgada,37.7333,-25.6667,291.59,82,40,10.29,PT,1707356905
220,puerto baquerizo moreno,-0.9,-89.6,298.84,83,70,4.93,EC,1707356905
221,greenville,35.6127,-77.3663,278.12,78,0,2.06,US,1707356642
222,novo aripuana,-5.1206,-60.3797,299.41,81,93,0.61,BR,1707356905
223,el bolson,-41.9667,-71.5167,283.26,69,100,2.36,AR,1707356905
224,coxen hole,16.3244,-86.5366,296.75,64,75,1.03,HN,1707356906
225,gizo,-8.103,156.8419,302.17,77,100,6.9,SB,1707356906
226,kuraymah,18.55,31.85,287.98,20,2,4.1,SD,1707356906
227,kabwe,-14.4469,28.4464,290.34,95,77,1.39,ZM,1707356906
228,wynyard,-41.0,145.7167,291.87,59,1,3.27,AU,1707356906
229,la sarre,48.8002,-79.1996,273.7,94,100,2.17,CA,1707356906
230,garoua,9.3,13.4,294.88,22,8,0.45,CM,1707356906
231,lichinga,-13.3128,35.2406,292.2,77,0,3.13,MZ,1707356906
232,piton saint-leu,-21.2196,55.3151,297.21,78,100,1.03,RE,1707356906
233,lewistown,40.5992,-77.5714,276.02,84,0,0.0,US,1707356906
234,constantia,44.1833,28.65,282.53,72,100,4.69,RO,1707356906
235,altai,46.3722,96.2583,255.79,71,0,1.31,MN,1707356906
236,arauco,-37.2463,-73.3175,287.74,64,100,4.0,CL,1707356906
237,zhangye,38.9342,100.4517,269.25,49,6,2.82,CN,1707356906
238,dzhambeyty,50.2536,52.595,274.28,99,100,9.03,KZ,1707356906
239,humaita,-7.5061,-63.0208,297.91,96,97,0.99,BR,1707356906
240,waddan,29.1614,16.139,285.45,35,0,1.76,LY,1707356906
241,bikenibeu village,1.3673,173.1241,302.13,89,75,4.12,KI,1707356725
242,levuka,50.1834,-105.4011,270.99,97,100,4.85,CA,1707356907
243,newman,37.3138,-121.0208,282.34,87,84,0.89,US,1707356907
244,oranjemund,-28.55,16.4333,290.48,87,33,3.03,NA,1707356724
245,moa,20.6569,-74.9403,294.36,82,53,5.18,CU,1707356907
246,san antonio de pale,-1.4014,5.6325,300.89,78,18,1.93,GQ,1707356907
247,petropavlovsk-kamchatsky,53.0452,158.6483,265.62,80,20,2.0,RU,1707356907
248,weno,7.4515,151.8468,303.12,74,100,6.69,FM,1707356907
249,manokwari,-0.8667,134.0833,301.12,75,94,2.12,ID,1707356907
250,bamboo flat,11.7,92.7167,297.2,94,49,0.51,IN,1707356907
251,bria,6.5423,21.9863,293.31,34,20,1.65,CF,1707356907
252,revda,56.801,59.9303,254.02,100,99,0.2,RU,1707356907
253,bayanhongor,46.7167,100.1167,247.62,77,5,1.34,MN,1707356907
254,baharly,38.4362,57.4316,283.5,42,90,1.94,TM,1707356907
255,saldanha,-33.0117,17.9442,290.18,85,20,4.48,ZA,1707356907
256,goderich,43.7501,-81.7165,277.33,70,100,2.57,CA,1707356746
257,kristiansund,63.1115,7.732,270.51,68,100,3.09,NO,1707356908
258,asparuhovo,43.3915,25.1255,283.32,64,100,2.33,BG,1707356908
259,murashi,59.3999,48.9615,261.16,96,100,0.74,RU,1707356908
260,slavyanka,42.8633,131.3847,268.76,51,1,1.62,RU,1707356908
261,safi,32.1667,-8.8333,286.8,39,57,2.47,MA,1707356908
262,ibiza,38.9088,1.433,289.78,64,0,5.81,ES,1707356908
263,anadyr,64.75,177.4833,256.43,85,75,9.0,RU,1707356895
264,lompoc,34.6391,-120.4579,284.7,85,100,6.26,US,1707356741
265,camana,-16.6228,-72.7111,298.04,85,75,1.26,PE,1707356908
266,ancud,-41.8697,-73.8203,284.74,77,89,3.29,CL,1707356908
267,ilha de mocambique,-15.0342,40.7358,299.17,87,64,3.23,MZ,1707356908
268,tidjikja,18.5564,-11.4271,293.7,10,0,5.72,MR,1707356908
269,badger,64.8,-147.5333,258.29,81,0,0.0,US,1707356908
270,gunjur,13.2019,-16.7339,298.19,57,0,1.03,GM,1707356909
271,kuhmo,64.1333,29.5167,243.09,100,97,0.88,FI,1707356909
272,santiago del estero,-27.7951,-64.2615,301.05,62,100,3.18,AR,1707356909
273,eduardo castex,-35.915,-64.2945,299.58,58,10,7.25,AR,1707356645
274,valdivia,-39.8142,-73.2459,289.2,57,100,2.27,CL,1707356840
275,birobidzhan,48.8,132.95,258.05,79,5,1.25,RU,1707356909
276,huarmey,-10.0681,-78.1522,298.24,81,56,3.43,PE,1707356909
277,neiafu,-18.65,-173.9833,304.53,66,20,4.12,TO,1707356909
278,prince george,53.9166,-122.753,271.84,90,100,2.06,CA,1707356886
279,naze,28.3667,129.4833,284.66,81,100,5.58,JP,1707356909
280,garachico,28.7781,-17.7646,291.2,52,0,1.03,ES,1707356909
281,saudarkrokur,65.7461,-19.6394,257.85,95,59,3.42,IS,1707356909
282,hilo,19.7297,-155.09,298.86,78,75,3.09,US,1707356909
283,sittwe,20.15,92.9,294.64,80,4,4.96,MM,1707356781
284,masina,-4.3836,15.3914,297.34,90,94,0.48,CD,1707356909
285,trinity beach,-16.7888,145.6968,305.38,74,75,2.06,AU,1707356909
286,nova olinda do norte,-3.8881,-59.0942,300.47,72,100,0.9,BR,1707356909
287,lensk,60.7253,114.9278,245.84,99,61,0.21,RU,1707356910
288,saint augustine beach,29.8505,-81.2654,284.82,87,0,4.63,US,1707356910
289,nioki,-2.7167,17.6833,296.54,83,96,0.91,CD,1707356910
290,sault ste. marie,46.5168,-84.3333,275.31,82,0,2.57,CA,1707356878
291,aripuana,-9.1667,-60.6333,297.66,86,90,0.64,BR,1707356910
292,champerico,14.3,-91.9167,299.6,64,98,1.74,GT,1707356910
293,cabedelo,-6.9811,-34.8339,302.52,81,94,3.71,BR,1707356910
294,takahagi,36.7167,140.7167,283.25,54,70,1.32,JP,1707356910
295,kut chap,17.4257,102.5669,294.03,28,0,2.03,TH,1707356910
296,darazo,10.9938,10.4118,289.01,29,32,3.1,NG,1707356910
297,la passe,45.5549,-0.8967,285.36,90,100,5.57,FR,1707356910
298,hobyo,5.3505,48.5268,298.83,80,83,7.61,SO,1707356910
299,villa gesell,-37.2639,-56.973,295.96,93,100,5.81,AR,1707356910
300,imbituba,-28.24,-48.6703,300.29,93,55,2.11,BR,1707356910
301,llallagua,-18.4167,-66.6333,280.78,79,100,1.43,BO,1707356911
302,matias romero,16.8833,-95.0333,290.6,86,0,2.69,MX,1707356911
303,chernyshevskiy,63.0128,112.4714,236.21,100,54,0.6,RU,1707356911
304,sarnia,42.9787,-82.4041,276.45,80,100,2.57,CA,1707356832
305,thinadhoo,0.5333,72.9333,301.33,74,94,5.53,MV,1707356898
306,goose creek,32.981,-80.0326,280.87,73,0,2.57,US,1707356911
307,susanville,40.4163,-120.653,274.15,96,100,0.0,US,1707356911
308,sisimiut,66.9395,-53.6735,259.45,93,100,6.96,GL,1707356911
309,vila franca do campo,37.7167,-25.4333,291.42,99,99,8.62,PT,1707356739
310,uchiza,-8.4592,-76.4633,295.55,93,66,1.17,PE,1707356911
311,bocas del toro,9.3333,-82.25,294.29,77,100,4.51,PA,1707356911
312,zhosaly,45.4878,64.0781,272.67,94,89,7.72,KZ,1707356911
313,buritizeiro,-17.3511,-44.9622,294.79,96,100,0.58,BR,1707356911
314,ivanteyevka,55.9711,37.9208,260.43,95,99,2.24,RU,1707356911
315,taltal,-25.4,-70.4833,295.11,79,29,1.21,CL,1707356911
316,ouahigouya,13.5828,-2.4216,293.5,14,5,4.34,BF,1707356911
317,quellon,-43.1167,-73.6167,283.87,86,49,1.47,CL,1707356911
318,xinyuan,37.3,99.0,258.32,84,13,2.63,CN,1707356911
319,princeville,45.7668,-61.2985,270.71,90,100,1.79,CA,1707356912
320,tucume,-6.51,-79.8583,300.07,64,96,4.2,PE,1707356912
321,gweru,-19.45,29.8167,293.03,63,4,2.0,ZW,1707356912
322,liezen,47.5667,14.2333,278.52,85,100,1.35,AT,1707356912
323,birao,10.2849,22.7882,291.81,23,45,2.65,CF,1707356912
324,letlhakane,-21.4167,25.5833,297.37,51,76,0.15,BW,1707356912
325,haiku-pauwela,20.9219,-156.3051,299.4,55,20,11.32,US,1707356912
326,al ghayzah,16.2079,52.176,294.34,39,8,3.71,YE,1707356912
327,gorontalo,0.5412,123.0595,303.64,63,100,1.24,ID,1707356912
328,sathyamangalam,11.5167,77.25,295.01,61,98,1.19,IN,1707356912
329,ilhabela,-23.7781,-45.3581,297.99,89,87,2.79,BR,1707356912
330,palangkaraya,-2.2,113.8333,302.35,75,88,0.8,ID,1707356913
331,farafangana,-22.8167,47.8333,297.03,91,86,3.13,MG,1707356913
332,smirnovo,54.5125,69.4222,268.16,91,100,9.47,KZ,1707356913
333,katabu,-4.9333,122.5167,301.78,76,96,3.3,ID,1707356899
334,paramonga,-10.6667,-77.8333,298.19,81,30,3.24,PE,1707356913
335,gaspe,48.8334,-64.4819,267.1,92,0,0.0,CA,1707356762
336,isola di capo rizzuto,38.96,17.0933,285.08,57,23,3.51,IT,1707356913
337,east london,-33.0153,27.9116,292.82,59,0,4.16,ZA,1707356721
338,jianshui,23.6363,102.8264,289.07,58,0,2.09,CN,1707356913
339,mszczonow,51.9742,20.5208,275.49,80,100,4.17,PL,1707356913
340,baruun-urt,46.6806,113.2792,250.29,99,98,3.79,MN,1707356913
341,island harbour,50.724,-1.2758,280.33,95,100,5.36,GB,1707356913
342,scarborough,54.2797,-0.4044,274.07,87,90,1.25,GB,1707356777
343,sierra grande,-41.606,-65.3557,293.36,28,62,1.73,AR,1707356913
344,rumuruti,0.267,36.5389,287.61,84,3,2.72,KE,1707356913
345,saint-joseph,-21.3667,55.6167,298.36,85,89,4.59,RE,1707356914
346,"laikit, laikit ii (dimembe)",1.4792,124.9735,301.62,74,40,1.03,ID,1707356914
347,punta umbria,37.1821,-6.9661,286.66,84,100,2.97,ES,1707356914
348,sanctuary point,-35.1114,150.629,295.48,50,86,4.32,AU,1707356914
349,santa isabel,-23.3156,-46.2214,295.57,96,88,0.75,BR,1707356773
350,nikolayevsk-on-amure,53.1406,140.73,257.14,84,99,1.59,RU,1707356914
351,rongelap,11.1635,166.8941,299.57,77,100,9.36,MH,1707356728
352,yemva,62.59,50.8594,265.75,96,100,3.16,RU,1707356914
353,holualoa,19.6228,-155.9522,297.06,69,75,4.63,US,1707356914
354,dalandzadgad,43.5708,104.425,260.22,77,3,1.02,MN,1707356914
355,kavaratti,10.5669,72.642,300.94,72,99,1.86,IN,1707356914
356,vanimo,-2.6741,141.3028,302.7,70,77,3.75,PG,1707356914
357,conception bay south,47.4999,-52.9981,271.17,91,91,7.66,CA,1707356914
358,tobruk,32.0836,23.9764,288.06,64,100,4.92,LY,1707356915
359,kasongo-lunda,-6.4667,16.8167,294.56,98,100,0.56,CD,1707356915
360,paraiso,9.8383,-83.8656,290.63,97,99,1.85,CR,1707356915
361,vilyuysk,63.7553,121.6247,237.6,99,78,1.54,RU,1707356915
362,masterton,-40.9597,175.6575,299.87,46,40,3.62,NZ,1707356743
363,dom pedro,-4.4833,-44.45,297.91,89,92,1.45,BR,1707356768
364,touros,-5.1989,-35.4608,300.06,81,44,4.8,BR,1707356634
365,nantucket,41.2835,-70.0995,275.21,87,100,7.08,US,1707356915
366,alaghsas,17.0187,8.0168,288.0,23,0,3.77,NE,1707356915
367,huilong,31.8111,121.655,276.71,67,100,4.91,CN,1707356915
368,maitum,6.0392,124.4986,299.5,81,100,0.67,PH,1707356915
369,vung tau,10.346,107.0843,299.63,76,93,5.29,VN,1707356915
370,uturoa,-16.7333,-151.4333,301.64,84,83,12.3,PF,1707356896
371,zhanaozen,43.3,52.8,278.02,95,87,5.25,KZ,1707356915
372,pokhara,28.2333,83.9833,285.0,32,2,1.77,NP,1707356915
373,savanna-la-mar,18.219,-78.1332,297.12,72,0,3.42,JM,1707356915
374,tobelo,1.7284,128.0095,301.62,73,95,1.97,ID,1707356915
375,albuquerque,35.0845,-106.6511,280.88,44,75,9.83,US,1707356721
376,nabire,-3.3667,135.4833,303.99,58,100,0.78,ID,1707356916
377,awjilah,29.1081,21.2869,287.01,34,7,2.82,LY,1707356916
378,kiama,-34.6833,150.8667,297.25,62,99,4.89,AU,1707356916
379,urangan,-25.3,152.9,303.26,62,2,6.71,AU,1707356916
380,port moresby,-9.4431,147.1797,300.83,78,75,5.14,PG,1707356916
381,west island,-12.1568,96.8225,300.14,94,75,0.0,CC,1707356916
382,galesong,-5.3166,119.3661,298.16,79,94,2.62,ID,1707356916
383,bratsk,56.1325,101.6142,255.42,100,76,0.46,RU,1707356916
384,bamako,12.65,-8.0,298.38,15,95,4.12,ML,1707356691
385,orchard homes,46.8633,-114.0484,274.59,89,100,2.06,US,1707356916
386,villa la angostura,-40.7617,-71.6463,282.19,68,100,1.88,AR,1707356916
387,belmonte,-15.8631,-38.8828,299.41,84,94,3.04,BR,1707356916
388,tot'ma,59.9747,42.7642,256.13,97,100,3.3,RU,1707356916
389,yuzhno-kurilsk,44.0306,145.8556,266.69,70,100,4.09,RU,1707356916
390,ingeniero jacobacci,-41.3427,-69.5448,289.98,25,100,5.12,AR,1707356917
391,sitka,57.0531,-135.33,276.09,75,0,0.0,US,1707356695
392,freeport,40.6576,-73.5832,279.81,76,0,0.0,US,1707356912
393,antsiranana,-12.2787,49.2917,298.26,85,100,2.08,MG,1707356917
394,tralee,52.2704,-9.7026,278.49,90,100,8.29,IE,1707356917
395,albu kamal,34.45,40.9186,285.38,57,0,1.86,SY,1707356917
396,necochea,-38.5473,-58.7368,293.79,91,65,5.36,AR,1707356893
397,miramar beach,30.3744,-86.3586,286.14,74,0,0.0,US,1707356815
398,vorkuta,67.5,64.0,264.85,88,100,4.6,RU,1707356917
399,sant lluis,39.8526,4.2594,286.37,100,0,4.12,ES,1707356917
400,kelibia,36.8476,11.0939,286.29,88,20,1.54,TN,1707356917
401,stawell,-37.05,142.7667,298.3,28,48,1.95,AU,1707356917
402,paranagua,-25.52,-48.5092,296.4,96,100,0.19,BR,1707356917
403,falakata,26.5208,89.2055,286.54,63,3,2.84,IN,1707356917
404,zarghun shahr,32.8473,68.4457,263.72,78,1,2.84,AF,1707356918
405,nsanje,-16.92,35.262,297.85,89,100,0.37,MW,1707356918
406,san rafael del yuma,18.4299,-68.6739,295.26,84,100,2.64,DO,1707356918
407,sos'va,59.1766,61.8558,261.51,98,75,1.79,RU,1707356918
408,dryden,49.7833,-92.7503,275.31,93,100,4.12,CA,1707356918
409,crucecita,-28.95,-58.9833,300.57,63,25,5.1,AR,1707356918
410,haapsalu,58.9431,23.5414,265.88,89,100,1.29,EE,1707356918
411,santa ana,33.7456,-117.8678,287.29,70,75,6.69,US,1707356805
412,nishinoomote,30.7333,131.0,284.46,46,75,7.2,JP,1707356917
413,skovorodino,53.9833,123.9167,257.21,82,20,1.25,RU,1707356918
414,hargeysa,9.56,44.065,289.23,93,42,3.51,SO,1707356918
415,leava,-14.3,-178.1667,302.26,79,97,8.45,WF,1707356918
416,jiujiang,29.7333,115.9833,277.34,74,74,2.83,CN,1707356918
417,luderitz,-26.6481,15.1594,291.1,74,88,5.02,NA,1707356918
418,aweil,8.7682,27.4002,294.2,22,62,2.17,SS,1707356918
419,peace river,56.2501,-117.286,266.32,86,100,1.54,CA,1707356918
420,hithadhoo,-0.6,73.0833,300.63,77,97,3.86,MV,1707356918
421,tromso,69.6496,18.957,261.16,79,99,1.03,NO,1707356919
422,vel'sk,61.0701,42.0983,253.81,96,100,3.67,RU,1707356919
423,rio preto da eva,-2.6994,-59.6997,300.21,75,99,1.6,BR,1707356919
424,chonchi,-42.6128,-73.8092,285.71,93,25,0.89,CL,1707356896
425,baranchinskiy,58.1617,59.6991,257.28,100,99,1.13,RU,1707356919
426,tshabong,-26.05,22.45,299.08,31,94,3.73,BW,1707356919
427,merizo village,13.2658,144.6691,302.46,71,83,6.24,GU,1707356919
428,kuta,-8.7233,115.1723,302.12,74,40,5.14,ID,1707356765
429,bikin,46.8161,134.26,262.59,82,78,2.1,RU,1707356919
430,krutinka,56.0055,71.5113,263.27,92,30,6.87,RU,1707356919
431,pico truncado,-46.7949,-67.9573,287.43,36,1,8.19,AR,1707356919
432,sitia,35.2,26.0986,286.47,82,100,4.96,GR,1707356919
433,pagar alam,-4.0167,103.2667,298.7,71,91,0.72,ID,1707356919
434,fale old settlement,-9.3852,-171.2468,300.88,83,100,7.11,TK,1707356908
435,cheremushki,52.8356,91.3944,257.96,87,37,2.24,RU,1707356919
436,milharado,38.9473,-9.1991,289.13,71,20,6.69,PT,1707356920
437,praia da vitoria,38.7333,-27.0667,289.68,72,20,9.13,PT,1707356920
438,marsh harbour,26.5412,-77.0636,293.84,60,79,9.13,BS,1707356920
439,fayetteville,35.0527,-78.8784,279.27,63,0,1.54,US,1707356860
440,kuanda,56.3161,116.0806,257.86,95,98,0.35,RU,1707356920
441,akureyri,65.6835,-18.0878,268.11,68,100,1.54,IS,1707356920
442,trancas,-26.2314,-65.2803,294.94,83,100,1.91,AR,1707356920
443,pushkar,26.5,74.55,283.56,50,42,2.32,IN,1707356920
444,khasab,26.1799,56.2477,291.35,51,0,3.77,OM,1707356920
445,neufchateau,48.35,5.7,282.45,96,100,6.83,FR,1707356920
446,brokopondo,4.75,-55.1667,299.0,77,43,5.52,SR,1707356771
447,severo-yeniseyskiy,60.3725,93.0408,260.69,99,99,1.34,RU,1707356920
448,tazacorte,28.629,-17.9293,292.68,21,0,4.47,ES,1707356920
449,cidreira,-30.1811,-50.2056,296.72,89,99,6.19,BR,1707356920
450,pandan,14.0453,124.1694,301.15,66,7,0.97,PH,1707356920
451,bathsheba,13.2167,-59.5167,300.49,83,20,6.17,BB,1707356920
452,hailar,49.2,119.7,252.44,95,55,3.74,CN,1707356920
453,midvagur,62.0511,-7.1939,272.61,80,75,5.66,FO,1707356920
454,darwin,-12.4611,130.8418,304.29,78,99,1.34,AU,1707356859
455,bridgewater,44.3835,-64.5155,270.97,78,100,2.57,CA,1707356921
456,gopalpur,19.2667,84.9167,296.78,88,12,2.03,IN,1707356921
457,wanning,18.8003,110.3967,296.13,87,100,1.9,CN,1707356921
458,mount pearl,47.5166,-52.7813,270.84,93,100,5.66,CA,1707356921
459,siemiatycze,52.4272,22.8623,272.64,85,100,4.41,PL,1707356921
460,salalah,17.0151,54.0924,296.2,28,0,6.69,OM,1707356773
461,weligama,5.9667,80.4167,296.37,85,100,3.23,LK,1707356921
462,mutuali,-14.8706,37.0044,293.86,96,69,0.96,MZ,1707356921
463,ghat,24.9647,10.1728,286.1,22,0,2.48,LY,1707356921
464,guateque,5.0062,-73.4727,290.21,97,86,0.64,CO,1707356921
465,ulety,51.3572,112.4849,259.99,79,61,1.53,RU,1707356921
466,ouadda,8.0777,22.4007,291.6,28,89,2.09,CF,1707356921
467,egilsstadir,65.2653,-14.3948,268.1,68,75,1.54,IS,1707356921
468,lubz,53.4626,12.0292,272.14,85,100,3.4,DE,1707356921
469,ulanhot,46.0833,122.0833,262.33,56,8,2.26,CN,1707356921
470,tra vinh,9.9347,106.3453,302.06,58,91,3.39,VN,1707356922
471,qaqortoq,60.7167,-46.0333,266.13,79,100,2.02,GL,1707356922
472,margate,51.3813,1.3862,279.21,81,100,0.45,GB,1707356875
473,vadso,70.0744,29.7487,258.24,92,100,4.63,NO,1707356918
474,kwekwe,-18.9281,29.8149,292.01,81,6,0.79,ZW,1707356922
475,fier,40.7239,19.5561,283.28,72,100,2.04,AL,1707356922
476,tucuma,-0.1833,-50.05,298.29,92,8,2.18,BR,1707356922
477,nadi,-17.8,177.4167,301.15,78,75,4.12,FJ,1707356922
478,waingapu,-9.6567,120.2641,302.72,67,43,1.7,ID,1707356922
479,klatovy,49.3955,13.2951,281.7,86,100,6.28,CZ,1707356922
480,okha,53.5739,142.9478,256.08,90,97,4.63,RU,1707356922
481,nuuk,64.1835,-51.7216,264.49,73,100,4.12,GL,1707356922
482,st ives,50.2086,-5.4875,284.15,97,100,9.25,GB,1707356922
483,poronaysk,49.2167,143.1167,259.54,77,96,0.91,RU,1707356922
484,deogarh,21.5333,84.7333,292.46,46,3,1.29,IN,1707356922
485,bam,29.106,58.357,282.19,31,0,3.27,IR,1707356922
486,anloga,5.7947,0.8973,299.67,76,61,3.43,GH,1707356923
487,satsumasendai,31.8167,130.3,279.88,58,99,3.26,JP,1707356923
488,sechura,-5.5569,-80.8222,300.5,70,59,6.48,PE,1707356923
489,agadez,19.75,10.25,286.48,25,0,2.78,NE,1707356923
490,langsa,4.4683,97.9683,301.42,68,51,1.33,ID,1707356923
491,impfondo,1.6381,18.0667,296.2,46,37,0.34,CG,1707356923
492,burang,30.25,81.1667,257.65,76,16,3.35,CN,1707356923
493,hanover,52.3705,9.7332,274.3,95,0,1.03,DE,1707356923
494,ambodifotatra,-16.9833,49.85,299.22,84,76,2.42,MG,1707356923
495,arraias,-12.9288,-46.9437,295.49,84,98,0.89,BR,1707356923
496,zeya,53.75,127.2667,261.15,73,100,1.17,RU,1707356923
497,tibati,6.4667,12.6333,291.97,25,38,1.35,CM,1707356923
498,berezovskiy,55.6,86.2,263.38,98,100,2.69,RU,1707356923
499,lepsy,46.235,78.9456,271.31,93,100,6.0,KZ,1707356923
500,es castell,39.8795,4.2854,286.53,100,0,4.12,ES,1707356923
501,pudasjarvi,65.3833,26.9167,243.92,100,98,1.96,FI,1707356923
502,coquimbo,-29.9533,-71.3436,292.0,88,100,1.03,CL,1707356923
503,richards bay,-28.783,32.0377,296.9,84,73,3.81,ZA,1707356924
504,zinder,13.8072,8.9881,288.46,20,0,4.48,NE,1707356924
505,mayqayyng,51.4625,75.7986,267.14,78,6,8.24,KZ,1707356924
506,podgorenskiy,50.405,39.6429,276.31,94,100,7.85,RU,1707356924
507,pionerskiy,54.9508,20.2275,273.23,72,83,3.71,RU,1707356924
508,san francisco,37.7749,-122.4194,284.2,69,75,10.73,US,1707356702
509,red deer,52.2668,-113.802,266.81,93,100,2.06,CA,1707356769
510,nemuro,43.3236,145.575,269.73,75,77,3.45,JP,1707356689
511,zhezqazghan,47.7833,67.7667,262.47,92,75,10.0,KZ,1707356924
512,cockburn town,21.4612,-71.1419,296.46,72,9,7.1,TC,1707356924
513,el quebrachal,-25.2833,-64.0667,299.77,59,100,1.92,AR,1707356924
514,nilokheri,29.8333,76.9167,280.33,47,0,5.19,IN,1707356924
515,eydhafushi,5.1033,73.0708,300.47,72,100,6.26,MV,1707356924
516,sao joao da barra,-21.6403,-41.0511,298.33,88,100,2.0,BR,1707356924
517,ust'-ordynskiy,52.805,104.7508,255.31,95,99,1.29,RU,1707356924
518,fortuna,40.5982,-124.1573,282.4,91,75,0.0,US,1707356924
519,tingo maria,-9.2895,-76.0088,294.08,93,27,1.08,PE,1707356924
520,phayakkhaphum phisai,15.5163,103.1937,304.57,29,6,4.22,TH,1707356924
521,sabang,5.8933,95.3214,300.83,75,63,4.44,ID,1707356924
522,kailua-kona,19.6406,-155.9956,299.13,69,75,4.63,US,1707356924
523,murzuq,25.9155,13.9184,284.66,37,0,2.46,LY,1707356925
524,tangalle,6.024,80.7911,295.24,83,89,4.4,LK,1707356657
525,olyokminsk,60.3736,120.4264,244.98,99,99,0.54,RU,1707356925
526,ketchikan,55.3422,-131.6461,276.14,64,100,1.54,US,1707356757
527,twon-brass,4.3151,6.2418,300.08,82,13,2.04,NG,1707356925
528,zanjan,36.6736,48.4787,273.38,80,5,2.12,IR,1707356925
529,port douglas,-16.4833,145.4667,301.58,78,37,3.98,AU,1707356925
530,igarka,67.4667,86.5833,253.28,99,97,2.64,RU,1707356925
531,freetown,8.484,-13.2299,298.5,86,97,2.56,SL,1707356925
532,ust'-ilimsk,58.0006,102.6619,262.28,97,100,1.47,RU,1707356925
533,greymouth,-42.4667,171.2,291.47,64,92,6.11,NZ,1707356925
534,cururupu,-1.8283,-44.8683,297.66,97,19,1.4,BR,1707356925
535,tshikapa,-6.4167,20.8,295.71,88,100,0.66,CD,1707356925
536,rundu,-17.9333,19.7667,293.25,86,99,1.7,NA,1707356925
537,viedma,-40.8135,-62.9967,292.45,48,92,5.26,AR,1707356925
538,funafuti,-8.5243,179.1942,303.15,79,100,9.26,TV,1707356926
539,elverum,60.8819,11.5623,246.7,100,68,1.31,NO,1707356926
540,ouargla,31.9493,5.325,282.19,37,0,1.03,DZ,1707356926
541,esmeraldas,-19.7625,-44.3139,296.34,91,100,0.77,BR,1707356926
542,lisala,2.15,21.5167,294.39,44,38,0.31,CD,1707356926
543,acapulco de juarez,16.8634,-99.8901,300.05,74,0,4.12,MX,1707356892
544,claudio,-20.4433,-44.7658,292.73,95,100,1.31,BR,1707356926
545,raja,8.4596,25.678,292.66,24,42,1.76,SS,1707356926
546,duki,30.1541,68.5728,280.88,42,0,1.19,PK,1707356926
547,novodvinsk,64.4165,40.8122,241.01,100,99,2.02,RU,1707356926
548,kununurra,-15.7667,128.7333,303.14,62,100,5.66,AU,1707356926
549,shunyi,40.125,116.6453,273.12,21,0,3.0,CN,1707356926
550,santiago de cao,-7.9589,-79.2392,298.22,83,40,3.09,PE,1707356926
551,xianyang,34.3378,108.7026,271.73,93,12,1.0,CN,1707356926
552,yaren,-0.5472,166.916,302.37,78,100,7.49,NR,1707356926
553,shimo-furano,43.35,142.3833,268.37,73,94,4.02,JP,1707356926
554,kalulushi,-12.8378,28.0919,289.37,97,88,0.43,ZM,1707356926
555,gangapur,26.4833,76.7167,284.14,52,86,1.36,IN,1707356926
556,espumoso,-28.7247,-52.8497,295.49,77,97,2.56,BR,1707356926
557,al fashn,28.8243,30.8995,285.38,60,1,3.11,EG,1707356926
558,sinop,41.7711,34.8709,281.62,55,100,2.76,TR,1707356927
559,qamdo,31.1667,97.2333,265.73,56,99,0.31,CN,1707356927
560,qulsary,46.9531,54.0198,276.46,89,100,8.11,KZ,1707356927
561,qusmuryn,52.4503,64.6311,264.09,90,99,9.32,KZ,1707356927
562,shantobe,52.4581,68.1839,264.8,92,100,10.07,KZ,1707356927
563,zuwarah,32.9312,12.082,287.34,50,0,5.0,LY,1707356927
564,mount gambier,-37.8333,140.7667,296.01,38,0,3.65,AU,1707356927
565,kourou,5.1552,-52.6478,301.18,80,94,3.78,GF,1707356927
566,burley,42.5357,-113.7928,276.13,70,0,5.14,US,1707356927
567,baynjiwayn,35.6183,45.9541,274.88,87,61,0.65,IQ,1707356927
568,crane,31.3974,-102.3501,286.78,48,84,1.61,US,1707356927
569,karaman,37.0833,33.25,277.23,89,51,8.62,TR,1707356927
570,whistler,50.1164,-122.9695,276.24,64,100,0.0,CA,1707356927
571,wakkanai,45.4094,141.6739,270.42,72,75,4.47,JP,1707356927
572,tiruchengode,11.3833,77.9333,294.2,72,92,1.12,IN,1707356927
573,moyobamba,-6.05,-76.9667,292.93,98,100,0.55,PE,1707356886
574,minot air force base,48.4209,-101.3391,273.25,92,100,4.63,US,1707356927
